$GPGLL,4916.45,N,12311.12,W,225444,A,*1D
$GPRMC,225445,A,4917.24,N,12310.94,W,000.0,360.0,080301,015.5,E*6F
$GPVTG,360.0,T,348.7,M,000.0,N,000.0,K*43
$GPGGA,225446,4917.25,N,12310.93,W,1,08,1.0,545.4,M,-26.7,M,,*79
$GPGSA,A,3,10,07,05,02,29,04,08,13,,,,1.0,1.0,1.0*39
$GPGSV,3,1,11,10,63,197,17,07,61,252,15,05,59,045,15,02,54,070,15*79
$GPGSV,3,2,11,29,52,308,20,04,39,169,18,08,30,112,15,13,09,169,15*76
$GPGSV,3,3,11,16,,,18,,,,,,,,,*4F
$GPGLL,4917.24,N,12310.93,W,225446,A,*1D
$GPRMC,225447,A,4917.20,N,12310.89,W,000.0,360.0,080301,015.5,E*69
$GPVTG,360.0,T,348.7,M,000.0,N,000.0,K*43
$GPGGA,225448,4917.21,N,12310.88,W,1,08,1.0,545.2,M,-26.7,M,,*76
$GPGSA,A,3,10,07,05,02,29,04,08,13,,,,1.0,1.0,1.0*39
$GPGSV,3,1,11,10,63,197,17,07,61,252,15,05,59,045,15,02,54,070,15*79
$GPGSV,3,2,11,29,52,308,20,04,39,169,18,08,30,112,15,13,09,169,15*76
$GPGSV,3,3,11,16,,,18,,,,,,,,,*4F
$GPGLL,4917.19,N,12310.90,W,225447,A,*1D
$GPRMC,225448,A,4917.15,N,12310.85,W,000.0,360.0,080301,015.5,E*65
$GPVTG,360.0,T,348.7,M,000.0,N,000.0,K*43
$GPGGA,225449,4917.16,N,12310.84,W,1,08,1.0,545.0,M,-26.7,M,,*7F
$GPGSA,A,3,10,07,05,02,29,04,08,13,,,,1.0,1.0,1.0*39
$GPGSV,3,1,11,10,63,197,17,07,61,252,15,05,59,045,15,02,54,070,15*79
$GPGSV,3,2,11,29,52,308,20,04,39,169,18,08,30,112,15,13,09,169,15*76
$GPGSV,3,3,11,16,,,18,,,,,,,,,*4F
$GPGLL,4917.15,N,12310.84,W,225448,A,*1D
$GPRMC,225449,A,4917.11,N,12310.80,W,000.0,360.0,080301,015.5,E*61
$GPVTG,360.0,T,348.7,M,000.0,N,000.0,K*43
$GPGGA,225450,4917.12,N,12310.79,W,1,08,1.0,544.8,M,-26.7,M,,*79
$GPGSA,A,3,10,07,05,02,29,04,08,13,,,,1.0,1.0,1.0*39
$GPGSV,3,1,11,10,63,197,17,07,61,252,15,05,59,045,15,02,54,070,15*79
$GPGSV,3,2,11,29,52,308,20,04,39,169,18,08,30,112,15,13,09,169,15*76
$GPGSV,3,3,11,16,,,18,,,,,,,,,*4F
$GPGLL,4917.10,N,12310.81,W,225449,A,*1D
$GPRMC,225450,A,4917.06,N,12310.77,W,000.0,360.0,080301,015.5,E*63
$GPVTG,360.0,T,348.7,M,000.0,N,000.0,K*43
$GPGGA,225451,4917.07,N,12310.76,W,1,08,1.0,544.6,M,-26.7,M,,*7F
$GPGSA,A,3,10,07,05,02,29,04,08,13,,,,1.0,1.0,1.0*39
$GPGSV,3,1,11,10,63,197,17,07,61,252,15,05,59,045,15,02,54,070,15*79
$GPGSV,3,2,11,29,52,308,20,04,39,169,18,08,30,112,15,13,09,169,15*76
$GPGSV,3,3,11,16,,,18,,,,,,,,,*4F
$GPGLL,4917.06,N,12310.76,W,225450,A,*1D
$GPRMC,225451,A,4917.02,N,12310.72,W,000.0,360.0,080301,015.5,E*67
$GPVTG,360.0,T,348.7,M,000.0,N,000.0,K*43
$GPGGA,225452,4917.03,N,12310.71,W,1,08,1.0,544.4,M,-26.7,M,,*71
$GPGSA,A,3,10,07,05,02,29,04,08,13,,,,1.0,1.0,1.0*39
$GPGSV,3,1,11,10,63,197,17,07,61,252,15,05,59,045,15,02,54,070,15*79
$GPGSV,3,2,11,29,52,308,20,04,39,169,18,08,30,112,15,13,09,169,15*76
$GPGSV,3,3,11,16,,,18,,,,,,,,,*4F
$GPGLL,4917.01,N,12310.73,W,225451,A,*1D
$GPRMC,225452,A,4916.97,N,12310.69,W,000.0,360.0,080301,015.5,E*69
$GPVTG,360.0,T,348.7,M,000.0,N,000.0,K*43
$GPGGA,225453,4916.98,N,12310.68,W,1,08,1.0,544.2,M,-26.7,M,,*73
$GPGSA,A,3,10,07,05,02,29,04,08,13,,,,1.0,1.0,1.0*39
$GPGSV,3,1,11,10,63,197,17,07,61,252,15,05,59,045,15,02,54,070,15*79
$GPGSV,3,2,11,29,52,308,20,04,39,169,18,08,30,112,15,13,09,169,15*76
$GPGSV,3,3,11,16,,,18,,,,,,,,,*4F
$GPGLL,4916.96,N,12310.70,W,225452,A,*1D
$GPRMC,225453,A,4916.92,N,12310.66,W,000.0,360.0,080301,015.5,E*6B
$GPVTG,360.0,T,348.7,M,000.0,N,000.0,K*43
$GPGGA,225454,4916.93,N,12310.65,W,1,08,1.0,544.0,M,-26.7,M,,*75
$GPGSA,A,3,10,07,05,02,29,04,08,13,,,,1.0,1.0,1.0*39
$GPGSV,3,1,11,10,63,197,17,07,61,252,15,05,59,045,15,02,54,070,15*79
$GPGSV,3,2,11,29,52,308,20,04,39,169,18,08,30,112,15,13,09,169,15*76
$GPGSV,3,3,11,16,,,18,,,,,,,,,*4F
$GPGLL,4916.91,N,12310.67,W,225453,A,*1D
$GPRMC,225454,A,4916.87,N,12310.63,W,000.0,360.0,080301,015.5,E*6D
$GPVTG,360.0,T,348.7,M,000.0,N,000.0,K*43
$GPGGA,225455,4916.88,N,12310.62,W,1,08,1.0,543.8,M,-26.7,M,,*79
$GPGSA,A,3,10,07,05,02,29,04,08,13,,,,1.0,1.0,1.0*39
$GPGSV,3,1,11,10,63,197,17,07,61,252,15,05,59,045,15,02,54,070,15*79
$GPGSV,3,2,11,29,52,308,20,04,39,169,18,08,30,112,15,13,09,169,15*76
$GPGSV,3,3,11,16,,,18,,,,,,,,,*4F
$GPGLL,4916.86,N,12310.64,W,225454,A,*1D
$GPRMC,225455,A,4916.82,N,12310.60,W,000.0,360.0,080301,015.5,E*6F
$GPVTG,360.0,T,348.7,M,000.0,N,000.0,K*43
$GPGGA,225456,4916.83,N,12310.59,W,1,08,1.0,543.6,M,-26.7,M,,*7D
$GPGSA,A,3,10,07,05,02,29,04,08,13,,,,1.0,1.0,1.0*39
$GPGSV,3,1,11,10,63,197,17,07,61,252,15,05,59,045,15,02,54,070,15*79
$GPGSV,3,2,11,29,52,308,20,04,39,169,18,08,30,112,15,13,09,169,15*76
$GPGSV,3,3,11,16,,,18,,,,,,,,,*4F
$GPGLL,4916.81,N,12310.61,W,225455,A,*1D
$GPRMC,225456,A,4916.77,N,12310.57,W,000.0,360.0,080301,015.5,E*6B
